City_ID,City,Country,Date,Lat,Lng,Max Temp,Humidity,Cloudiness,Wind Speed
0,Coos Bay,US,2022-07-28 03:45:11,43.3665,-124.2179,63.0,96,100,6.91
1,Saldanha,ZA,2022-07-28 03:47:52,-33.0117,17.9442,42.85,69,0,7.58
2,Namibe,AO,2022-07-28 03:47:53,-15.1961,12.1522,61.2,79,75,7.11
3,Curillo,CO,2022-07-28 03:47:53,1.0333,-75.9191,67.66,98,99,1.23
4,Leningradskiy,RU,2022-07-28 03:47:54,69.3833,178.4167,39.06,79,95,7.56
5,Chalus,IR,2022-07-28 03:47:54,36.655,51.4204,76.46,88,75,4.61
6,Muros,ES,2022-07-28 03:47:55,42.7762,-9.0603,61.09,83,93,1.01
7,New Norfolk,AU,2022-07-28 03:47:55,-42.7826,147.0587,52.72,70,97,3.0
8,Xiangxiang,CN,2022-07-28 03:47:55,27.7333,112.5333,98.38,43,100,3.06
9,Port Alfred,ZA,2022-07-28 03:46:57,-33.5906,26.891,63.79,82,89,20.11
10,Skelleftea,SE,2022-07-28 03:47:56,64.7507,20.9528,52.16,95,100,10.36
11,Airai,TL,2022-07-28 03:42:59,-8.9266,125.4092,71.01,46,13,5.44
12,Kuusamo,FI,2022-07-28 03:47:57,65.9667,29.1833,55.44,94,100,6.91
13,Rikitea,PF,2022-07-28 03:46:49,-23.1203,-134.9692,74.03,67,100,17.85
14,Hermanus,ZA,2022-07-28 03:47:57,-34.4187,19.2345,53.8,79,0,12.21
15,Limenaria,GR,2022-07-28 03:47:58,40.6261,24.5786,80.94,61,0,7.96
16,Mataura,NZ,2022-07-28 03:47:18,-46.1927,168.8643,47.48,98,100,3.78
17,Punta Arenas,CL,2022-07-28 03:47:59,-53.15,-70.9167,39.31,75,20,26.46
18,Adrar,MR,2022-07-28 03:47:59,20.5022,-10.0711,94.12,9,0,8.81
19,Karratha,AU,2022-07-28 03:45:18,-20.7377,116.8463,79.86,36,0,18.14
20,Yantal,RU,2022-07-28 03:48:00,56.8471,105.2542,56.52,98,100,10.47
21,Barrow,US,2022-07-28 03:48:00,71.2906,-156.7887,33.82,100,100,13.8
22,Ushuaia,AR,2022-07-28 03:46:51,-54.8,-68.3,40.66,81,75,18.41
23,Busselton,AU,2022-07-28 03:47:20,-33.65,115.3333,64.51,68,27,12.55
24,Upernavik,GL,2022-07-28 03:46:21,72.7868,-56.1549,40.32,85,100,1.72
25,Tura,IN,2022-07-28 03:48:01,25.5198,90.2201,81.66,83,44,4.18
26,Katsuura,JP,2022-07-28 03:44:17,35.1333,140.3,83.41,78,56,11.65
27,Puerto Ayora,EC,2022-07-28 03:47:11,-0.7393,-90.3518,68.56,98,98,5.99
28,Nome,US,2022-07-28 03:48:02,64.5011,-165.4064,54.16,82,75,12.66
29,Paamiut,GL,2022-07-28 03:48:03,61.994,-49.6678,42.39,90,59,15.59
30,Mar Del Plata,AR,2022-07-28 03:46:22,-38.0023,-57.5575,51.1,57,100,15.99
31,Vryburg,ZA,2022-07-28 03:48:03,-26.9566,24.7284,56.53,55,100,10.56
32,Saskylakh,RU,2022-07-28 03:48:04,71.9167,114.0833,74.19,51,84,8.21
33,Vaini,TO,2022-07-28 03:46:53,-21.2,-175.2,78.96,83,20,10.36
34,Mehamn,NO,2022-07-28 03:44:18,71.0357,27.8492,49.95,93,75,20.71
35,Grindavik,IS,2022-07-28 03:46:26,63.8424,-22.4338,49.95,93,75,23.02
36,Avarua,CK,2022-07-28 03:48:05,-21.2078,-159.775,77.05,69,40,12.66
37,Hobart,AU,2022-07-28 03:44:42,-42.8794,147.3294,53.06,63,93,1.99
38,Geraldton,AU,2022-07-28 03:45:25,-28.7667,114.6,70.21,68,40,8.05
39,Atuona,PF,2022-07-28 03:45:22,-9.8,-139.0333,77.63,73,21,24.16
40,Albany,US,2022-07-28 03:46:55,42.6001,-73.9662,69.46,80,94,1.86
41,Dhidhdhoo,MV,2022-07-28 03:48:06,6.8833,73.1,81.9,76,53,16.2
42,Bethel,US,2022-07-28 03:48:06,41.3712,-73.414,73.76,82,0,1.01
43,Tasiilaq,GL,2022-07-28 03:48:07,65.6145,-37.6368,41.16,96,92,5.53
44,Hamilton,US,2022-07-28 03:44:59,39.1834,-84.5333,76.57,91,0,3.44
45,Lompoc,US,2022-07-28 03:46:33,34.6391,-120.4579,64.54,85,100,12.66
46,Yellowknife,CA,2022-07-28 03:44:30,62.456,-114.3525,66.72,63,75,11.5
47,Green River,US,2022-07-28 03:47:43,41.5286,-109.4662,82.8,30,86,5.1
48,Freeport,US,2022-07-28 03:45:30,40.6576,-73.5832,79.16,76,0,9.22
49,Chicama,PE,2022-07-28 03:49:08,-7.8447,-79.1469,57.74,86,39,6.53
50,Kodiak,US,2022-07-28 03:49:09,57.79,-152.4072,56.71,62,0,8.05
51,Ashland,US,2022-07-28 03:46:06,40.8167,-82.2665,72.99,94,93,8.3
52,Thompson,CA,2022-07-28 03:45:01,55.7435,-97.8558,59.16,88,75,2.3
53,Hay River,CA,2022-07-28 03:46:11,60.8156,-115.7999,64.38,82,40,5.75
54,Iwanai,JP,2022-07-28 03:49:10,42.9744,140.5089,77.52,73,77,6.08
55,Ilulissat,GL,2022-07-28 03:45:10,69.2167,-51.1,44.62,93,100,1.14
56,Winnemucca,US,2022-07-28 03:49:10,40.973,-117.7357,93.25,10,0,10.36
57,Akom,CM,2022-07-28 03:49:11,2.6678,12.7109,64.98,99,89,2.46
58,Acapulco,MX,2022-07-28 03:49:11,16.8634,-99.8901,77.92,86,98,4.74
59,Jawa,JO,2022-07-28 03:49:12,31.8525,35.9393,71.91,38,0,0.0
60,Mahebourg,MU,2022-07-28 03:49:12,-20.4081,57.7,69.26,88,40,6.91
61,Lebu,CL,2022-07-28 03:49:12,-37.6167,-73.65,48.58,85,21,4.79
62,Peleduy,RU,2022-07-28 03:49:13,59.6289,112.7406,84.81,49,75,3.09
63,Coihaique,CL,2022-07-28 03:49:13,-45.5752,-72.0662,39.81,65,0,3.44
64,Aykhal,RU,2022-07-28 03:49:14,66.0,111.5,83.12,55,22,12.5
65,Ribeira Grande,PT,2022-07-28 03:49:14,38.5167,-28.7,72.52,83,25,9.42
66,Salihorsk,BY,2022-07-28 03:49:15,52.7876,27.5415,55.99,88,81,4.68
67,Georgetown,MY,2022-07-28 03:46:38,5.4112,100.3354,89.53,73,20,9.22
68,Guerrero Negro,MX,2022-07-28 03:49:15,27.9769,-114.0611,68.54,83,67,14.79
69,Cape Town,ZA,2022-07-28 03:48:04,-33.9258,18.4232,59.38,80,0,2.3
70,Mpophomeni,ZA,2022-07-28 03:49:16,-29.5682,30.1862,47.97,94,98,1.5
71,Kozyatyn,UA,2022-07-28 03:49:16,49.7143,28.8339,60.37,83,82,7.31
72,Cody,US,2022-07-28 03:49:17,44.5263,-109.0565,73.62,44,100,6.91
73,Saint-Pierre,RE,2022-07-28 03:49:17,-21.3393,55.4781,69.91,69,20,5.75
74,Nizhniy Baskunchak,RU,2022-07-28 03:49:18,48.2198,46.8311,74.17,63,96,12.15
75,Majene,ID,2022-07-28 03:49:18,-3.5403,118.9707,83.62,69,95,13.85
76,Dajal,PK,2022-07-28 03:49:19,29.5577,70.3762,94.84,53,90,7.65
77,Khatanga,RU,2022-07-28 03:46:44,71.9667,102.5,72.39,45,94,4.09
78,Severobaykalsk,RU,2022-07-28 03:49:19,55.65,109.3167,51.75,97,100,3.2
79,Hilo,US,2022-07-28 03:49:20,19.7297,-155.09,85.28,77,40,9.22
80,Coquimbo,CL,2022-07-28 03:49:20,-29.9533,-71.3436,53.33,93,75,1.14
81,Clyde River,CA,2022-07-28 03:49:21,70.4692,-68.5914,37.63,100,100,5.75
82,Kapaa,US,2022-07-28 03:49:21,22.0752,-159.319,84.18,73,20,16.11
83,Peniche,PT,2022-07-28 03:49:22,39.3558,-9.3811,65.28,91,3,10.63
84,Monmouth,US,2022-07-28 03:49:22,40.3001,-74.1663,80.46,81,0,4.61
85,Namatanai,PG,2022-07-28 03:46:46,-3.6667,152.4333,84.97,67,69,13.09
86,Padang,ID,2022-07-28 03:49:23,-0.9492,100.3543,86.05,57,24,4.41
87,Bredasdorp,ZA,2022-07-28 03:49:23,-34.5322,20.0403,47.79,91,0,5.7
88,Butaritari,KI,2022-07-28 03:48:32,3.0707,172.7902,81.84,78,11,12.53
89,Olafsvik,IS,2022-07-28 03:48:59,64.8945,-23.7142,47.93,87,100,27.38
90,Ilheus,BR,2022-07-28 03:50:24,-14.7889,-39.0494,66.65,90,30,5.03
91,Port Macquarie,AU,2022-07-28 03:46:56,-31.4333,152.9167,66.88,48,0,6.53
92,Cherskiy,RU,2022-07-28 03:50:25,68.75,161.3,55.31,47,99,6.15
93,Palenque,MX,2022-07-28 03:50:25,17.5167,-91.9667,73.92,94,100,3.27
94,Flin Flon,CA,2022-07-28 03:46:08,54.7682,-101.865,56.86,66,56,6.22
95,Kutum,SD,2022-07-28 03:50:26,14.2,24.6667,72.34,66,89,4.94
96,Ulcinj,ME,2022-07-28 03:50:26,41.9294,19.2244,74.98,74,30,6.67
97,Apostolove,UA,2022-07-28 03:50:27,47.66,33.7137,72.16,56,9,3.62
98,Dalbeattie,GB,2022-07-28 03:50:27,54.9328,-3.8227,58.84,75,100,2.86
99,Boo,SE,2022-07-28 03:50:28,59.3333,18.2833,56.59,73,100,8.05
100,Jamestown,US,2022-07-28 03:50:28,42.097,-79.2353,72.99,73,100,6.91
101,Sterling,US,2022-07-28 03:47:17,39.0062,-77.4286,79.59,90,20,5.01
102,Luderitz,NA,2022-07-28 03:47:26,-26.6481,15.1594,53.87,75,0,2.33
103,Kavieng,PG,2022-07-28 03:50:29,-2.5744,150.7967,84.96,72,25,18.16
104,Port Lincoln,AU,2022-07-28 03:49:06,-34.7333,135.8667,59.68,64,17,7.0
105,Faanui,PF,2022-07-28 03:50:30,-16.4833,-151.75,78.6,76,14,25.39
106,Morant Bay,JM,2022-07-28 03:50:30,17.8815,-76.4093,82.02,85,27,8.52
107,Bluff,NZ,2022-07-28 03:50:31,-46.6,168.3333,47.8,86,100,11.52
108,Longyearbyen,SJ,2022-07-28 03:47:01,78.2186,15.6401,42.64,81,75,18.41
109,Ponta Do Sol,PT,2022-07-28 03:48:33,32.6667,-17.1,73.71,74,0,5.91
110,Nizwa,OM,2022-07-28 03:50:31,22.9333,57.5333,78.66,73,80,6.38
111,Chumphon,TH,2022-07-28 03:50:32,10.3333,98.8333,83.21,70,99,1.03
112,Puerto Leguizamo,CO,2022-07-28 03:50:32,-0.1934,-74.7819,68.56,99,90,1.68
113,Dikson,RU,2022-07-28 03:47:07,73.5069,80.5464,40.55,94,61,13.49
114,Lagoa,PT,2022-07-28 03:49:45,39.05,-27.9833,71.13,81,0,7.27
115,Ankazobe,MG,2022-07-28 03:50:33,-18.3167,47.1167,52.54,83,0,3.85
116,Krasnoselkup,RU,2022-07-28 03:50:34,65.7,82.4667,60.48,63,88,17.56
117,Woodstock,CA,2022-07-28 03:46:08,43.1334,-80.7497,70.02,96,49,5.99
118,Vanderhoof,CA,2022-07-28 03:50:34,54.0166,-124.0198,75.88,53,1,2.42
119,Robertson,US,2022-07-28 03:46:06,36.5167,-86.8667,84.88,93,75,0.0
120,Cabo San Lucas,MX,2022-07-28 03:49:22,22.8909,-109.9124,86.5,71,44,10.29
121,Gedo,ET,2022-07-28 03:50:35,9.0167,37.45,50.58,97,87,0.98
122,Rio Pomba,BR,2022-07-28 03:50:35,-21.2747,-43.1792,58.75,89,0,1.39
123,Conyers,US,2022-07-28 03:50:24,33.6676,-84.0177,84.16,88,40,0.0
124,Juntas,CR,2022-07-28 03:50:36,10.2809,-84.9595,75.63,92,99,2.1
125,Pisco,PE,2022-07-28 03:50:36,-13.7,-76.2167,59.05,82,20,3.44
126,Sao Filipe,CV,2022-07-28 03:50:37,14.8961,-24.4956,78.26,88,92,3.98
127,Teya,RU,2022-07-28 03:50:37,60.3778,92.6267,65.21,65,99,1.61
128,Maceio,BR,2022-07-28 03:49:14,-9.6658,-35.7353,72.84,88,40,4.61
129,Auki,SB,2022-07-28 03:50:38,-8.7676,160.7034,85.84,63,15,4.38
130,Nizhniy Kuranakh,RU,2022-07-28 03:50:38,58.8353,125.4869,85.05,48,6,7.38
131,Provideniya,RU,2022-07-28 03:48:13,64.3833,-173.3,44.71,100,100,7.0
132,Baykit,RU,2022-07-28 03:50:39,61.67,96.37,68.68,79,100,3.47
133,Saint George,US,2022-07-28 03:50:35,37.1041,-113.5841,74.62,75,40,8.05
134,Lovozero,RU,2022-07-28 03:50:40,68.005,35.0117,61.3,72,70,6.76
135,Okhotsk,RU,2022-07-28 03:51:40,59.3833,143.3,66.15,74,28,7.25
136,Ampanihy,MG,2022-07-28 03:51:41,-24.7,44.75,56.32,87,0,5.68
137,Kearney,US,2022-07-28 03:51:41,40.6995,-99.0815,73.96,88,75,4.61
138,Sorong,ID,2022-07-28 03:51:41,-0.8833,131.25,82.13,79,28,4.36
139,Marzuq,YE,2022-07-28 03:51:42,14.4,46.4667,81.07,43,96,5.88
140,Jibuti,DJ,2022-07-28 03:51:42,11.5,42.5,83.86,44,14,7.67
141,Tooele,US,2022-07-28 03:51:43,40.5308,-112.2983,81.18,29,74,1.19
142,Jacareacanga,BR,2022-07-28 03:51:43,-6.2222,-57.7528,78.3,44,97,1.54
143,Tela,HN,2022-07-28 03:51:44,15.7833,-87.45,77.88,90,30,7.9
144,Bambous Virieux,MU,2022-07-28 03:50:41,-20.3428,57.7575,69.22,88,40,6.91
145,Castro,BR,2022-07-28 03:51:44,-24.7911,-50.0119,56.53,80,90,2.75
146,Luena,AO,2022-07-28 03:51:45,-11.7833,19.9167,48.51,45,99,3.69
147,Novaya Ladoga,RU,2022-07-28 03:51:45,60.1025,32.3019,59.9,85,84,6.04
148,Tuatapere,NZ,2022-07-28 03:51:45,-46.1333,167.6833,44.69,93,100,3.65
149,Cururupu,BR,2022-07-28 03:51:46,-1.8283,-44.8683,73.45,90,35,1.9
150,East London,ZA,2022-07-28 03:50:48,-33.0153,27.9116,59.94,88,0,4.61
151,Kruisfontein,ZA,2022-07-28 03:48:38,-34.0033,24.7314,51.73,91,2,5.12
152,Fortuna,US,2022-07-28 03:49:17,40.5982,-124.1573,58.93,84,7,1.01
153,Asau,RO,2022-07-28 03:51:47,46.4333,26.4,63.52,82,16,3.11
154,Sechura,PE,2022-07-28 03:51:48,-5.5569,-80.8222,63.52,82,25,15.28
155,Ancud,CL,2022-07-28 03:49:21,-41.8697,-73.8203,42.85,92,24,2.62
156,Mayya,RU,2022-07-28 03:51:48,61.7333,130.2811,90.72,34,6,1.86
157,Buinsk,RU,2022-07-28 03:51:49,54.95,48.2833,68.52,75,14,3.87
158,Ayan,RU,2022-07-28 03:51:23,56.45,138.1667,59.77,87,31,10.16
159,Qaanaaq,GL,2022-07-28 03:51:49,77.484,-69.3632,36.48,94,45,2.39
160,Constitucion,CL,2022-07-28 03:51:50,-35.3333,-72.4167,48.04,73,6,4.94
161,Kushiro,JP,2022-07-28 03:51:29,42.975,144.3747,77.95,78,75,5.75
162,Saint Augustine,US,2022-07-28 03:50:30,29.8947,-81.3145,80.01,96,78,10.27
163,Zdolbuniv,UA,2022-07-28 03:51:51,50.5206,26.2425,59.45,89,74,2.13
164,Jinchang,CN,2022-07-28 03:51:51,38.4953,102.1739,88.0,13,23,1.19
165,Dingle,PH,2022-07-28 03:47:03,10.9995,122.6711,87.67,70,99,11.12
166,Saint-Philippe,RE,2022-07-28 03:51:52,-21.3585,55.7679,67.59,85,38,10.11
167,Yerbogachen,RU,2022-07-28 03:51:52,61.2767,108.0108,74.88,68,38,6.51
168,Torbay,CA,2022-07-28 03:51:53,47.6666,-52.7314,63.57,92,100,19.57
169,Menongue,AO,2022-07-28 03:51:53,-14.6585,17.691,48.02,46,61,4.97
170,Greenlaw,GB,2022-07-28 03:51:54,55.7068,-2.4624,51.19,88,100,1.03
171,Port Hedland,AU,2022-07-28 03:47:36,-20.3167,118.5667,82.45,36,0,14.97
172,Chumikan,RU,2022-07-28 03:51:55,54.7183,135.315,65.43,76,7,11.05
173,San Patricio,US,2022-07-28 03:48:11,28.017,-97.5169,85.89,72,3,13.02
174,Araouane,ML,2022-07-28 03:50:50,18.9048,-3.5265,93.85,12,0,10.07
175,Tainan,TW,2022-07-28 03:51:31,22.9908,120.2133,91.18,62,40,6.91
176,Tuktoyaktuk,CA,2022-07-28 03:49:23,69.4541,-133.0374,48.2,81,100,11.5
177,Arraial Do Cabo,BR,2022-07-28 03:51:42,-22.9661,-42.0278,67.96,83,0,8.05
178,Dawson Creek,CA,2022-07-28 03:51:56,55.7666,-120.2362,83.84,48,0,3.44
179,Linkoping,SE,2022-07-28 03:52:56,58.4109,15.6216,52.18,97,75,4.61
180,Kahului,US,2022-07-28 03:52:57,20.8947,-156.47,84.22,66,20,23.02
181,Hellin,ES,2022-07-28 03:52:57,38.5106,-1.701,69.26,92,0,1.45
182,Rabat,MA,2022-07-28 03:52:58,33.9911,-6.8401,69.15,94,40,0.0
183,Meulaboh,ID,2022-07-28 03:52:58,4.1363,96.1285,83.95,66,92,2.37
184,Hokitika,NZ,2022-07-28 03:52:58,-42.7167,170.9667,49.84,86,100,5.61
185,Trento,IT,2022-07-28 03:52:59,46.0679,11.1211,69.94,89,40,6.91
186,Pevek,RU,2022-07-28 03:52:59,69.7008,170.3133,36.34,86,96,5.99
187,Moree,AU,2022-07-28 03:53:00,-29.4667,149.85,63.28,36,1,13.04
188,Mangai,CD,2022-07-28 03:53:00,-4.05,19.5333,70.54,68,99,2.33
189,Victoria,HK,2022-07-28 03:53:01,22.2855,114.1577,93.96,72,0,5.01
190,Ascension,US,2022-07-28 03:53:01,30.2169,-90.9001,79.02,91,0,0.0
191,Phalombe,MW,2022-07-28 03:53:02,-15.8064,35.6507,52.95,92,7,2.89
192,Port-Gentil,GA,2022-07-28 03:53:02,-0.7193,8.7815,74.75,80,96,13.51
193,Oriximina,BR,2022-07-28 03:53:03,-1.7656,-55.8661,76.86,72,36,1.99
194,Qesarya,IL,2022-07-28 03:53:03,32.5189,34.9046,73.35,71,0,1.21
195,Glendive,US,2022-07-28 03:53:03,47.1053,-104.7125,69.42,41,0,4.61
196,Caravelas,BR,2022-07-28 03:53:04,-17.7125,-39.2481,67.39,86,32,1.61
197,Ust-Nera,RU,2022-07-28 03:53:04,64.5667,143.2,74.01,39,93,2.08
198,Najran,SA,2022-07-28 03:53:05,17.4924,44.1277,77.65,45,93,1.81
199,Edd,ER,2022-07-28 03:53:05,13.9297,41.6925,91.31,61,66,2.37
200,Bayevo,RU,2022-07-28 03:53:06,53.2833,80.7667,80.91,42,96,13.51
201,Santa Maria,BR,2022-07-28 03:53:06,-29.6842,-53.8069,60.1,100,40,0.0
202,Tual,ID,2022-07-28 03:53:07,-5.6667,132.75,79.0,84,39,21.7
203,Roald,NO,2022-07-28 03:53:07,62.5833,6.1333,49.75,100,91,5.75
204,Kensington,AU,2022-07-28 03:53:08,-33.9167,151.2167,68.04,45,0,5.75
205,Maldonado,UY,2022-07-28 03:53:08,-34.6667,-54.9167,58.39,96,98,10.47
206,Ponta Delgada,PT,2022-07-28 03:53:09,37.7333,-25.6667,72.32,94,75,3.44
207,Honningsvag,NO,2022-07-28 03:53:09,70.9821,25.9704,47.95,87,75,18.41
208,Golden,US,2022-07-28 03:50:01,39.7555,-105.2211,79.43,61,97,10.0
209,Broome,US,2022-07-28 03:53:10,42.2506,-75.833,72.64,85,87,2.93
210,Chokurdakh,RU,2022-07-28 03:53:10,70.6333,147.9167,62.02,33,88,14.52
211,Ewa Beach,US,2022-07-28 03:53:11,21.3156,-158.0072,83.98,56,0,15.01
212,Lavrentiya,RU,2022-07-28 03:50:45,65.5833,-171.0,41.81,83,100,6.82
213,Yumen,CN,2022-07-28 03:53:11,40.2833,97.2,89.53,13,76,16.78
214,Kemijarvi,FI,2022-07-28 03:53:12,66.7131,27.4306,52.11,78,47,8.95
215,Qasigiannguit,GL,2022-07-28 03:53:12,68.8193,-51.1922,38.28,94,100,0.38
216,Belmonte,BR,2022-07-28 03:52:45,-15.8631,-38.8828,69.21,79,1,4.5
217,Biltine,TD,2022-07-28 03:53:13,14.5333,20.9167,73.76,77,100,6.6
218,Eganville,CA,2022-07-28 03:53:13,45.5334,-77.0994,63.41,82,50,5.23
219,Nanortalik,GL,2022-07-28 03:53:14,60.1432,-45.2371,42.3,85,97,9.48
220,Goderich,CA,2022-07-28 03:53:14,43.7501,-81.7165,73.72,83,0,11.5
221,Katete,UG,2022-07-28 03:53:15,-0.7818,29.7544,62.01,88,93,2.71
222,Hami,CN,2022-07-28 03:53:15,42.8,93.45,94.21,9,0,7.02
223,Elko,US,2022-07-28 03:53:16,41.0002,-115.5012,89.62,11,90,8.99
224,Tukrah,LY,2022-07-28 03:53:16,32.5341,20.5791,77.41,82,0,3.91
225,Catamarca,AR,2022-07-28 03:54:17,-28.4696,-65.7852,59.58,89,93,7.0
226,Iqaluit,CA,2022-07-28 03:54:17,63.7506,-68.5145,47.93,81,75,0.0
227,At-Bashi,KG,2022-07-28 03:54:17,41.1702,75.8106,78.4,25,81,2.13
228,Hithadhoo,MV,2022-07-28 03:54:18,-0.6,73.0833,82.8,73,100,11.79
229,North Bend,US,2022-07-28 03:53:02,43.4065,-124.2243,62.92,97,100,6.91
230,Swan Hill,AU,2022-07-28 03:54:19,-35.3378,143.5544,50.41,87,100,6.91
231,Motala,SE,2022-07-28 03:54:19,58.5371,15.0365,53.37,78,4,6.38
232,Rawson,AR,2022-07-28 03:54:19,-43.3002,-65.1023,40.39,80,7,16.08
233,Oudtshoorn,ZA,2022-07-28 03:54:20,-33.5907,22.2014,43.16,82,0,4.92
234,College,US,2022-07-28 03:51:55,64.8569,-147.8028,61.59,59,75,13.8
235,Mayo,US,2022-07-28 03:54:20,38.8876,-76.5119,81.95,88,100,1.99
236,Port Augusta,AU,2022-07-28 03:54:21,-32.5,137.7667,64.38,25,23,5.59
237,Bengkulu,ID,2022-07-28 03:54:21,-3.8004,102.2655,84.9,65,52,3.0
238,Libreville,GA,2022-07-28 03:54:22,0.3925,9.4537,75.22,88,75,5.75
239,Taoudenni,ML,2022-07-28 03:54:22,22.6783,-3.9836,97.03,6,8,19.08
240,San Cristobal,VE,2022-07-28 03:54:23,7.7669,-72.225,68.18,94,52,2.19
241,Balkhash,KZ,2022-07-28 03:54:23,46.844,74.9804,88.41,22,0,11.18
242,Port Elizabeth,ZA,2022-07-28 03:51:12,-33.918,25.5701,57.31,98,75,3.0
243,Ojinaga,MX,2022-07-28 03:54:24,29.5667,-104.4167,86.95,48,40,11.5
244,Mandapam,IN,2022-07-28 03:54:24,9.2833,79.1167,81.75,77,46,7.34
245,Qandala,SO,2022-07-28 03:54:24,11.472,49.8728,88.52,46,100,6.6
246,Mount Isa,AU,2022-07-28 03:54:25,-20.7333,139.5,74.97,22,31,14.97
247,Horqueta,PY,2022-07-28 03:54:25,-23.3428,-57.0597,69.73,41,8,5.46
248,Raver,IN,2022-07-28 03:54:26,21.25,76.0333,82.31,75,100,0.67
249,Ugoofaaru,MV,2022-07-28 03:54:26,5.6667,73.0,82.13,74,99,15.55
250,Narsaq,GL,2022-07-28 03:54:26,60.9167,-46.05,40.33,85,15,1.72
251,Lewistown,US,2022-07-28 03:54:13,40.5992,-77.5714,74.61,100,100,0.0
252,Kununurra,AU,2022-07-28 03:50:33,-15.7667,128.7333,80.58,18,5,10.36
253,Tiksi,RU,2022-07-28 03:54:27,71.6872,128.8694,70.43,56,90,7.54
254,Pabrade,LT,2022-07-28 03:54:28,55.0,25.7833,52.25,86,29,3.91
255,Nikolskoye,RU,2022-07-28 03:54:28,59.7035,30.7861,62.87,75,0,4.56
256,Isangel,VU,2022-07-28 03:52:48,-19.55,169.2667,73.51,94,100,2.3
257,Asyut,EG,2022-07-28 03:54:29,27.181,31.1837,78.98,19,1,3.69
258,Palu,ID,2022-07-28 03:54:29,-0.8917,119.8707,84.83,78,83,2.53
259,Carnarvon,AU,2022-07-28 03:54:29,-24.8667,113.6333,74.66,47,100,4.16
260,Mantua,IT,2022-07-28 03:54:30,45.1667,10.7833,74.44,83,8,1.99
261,Carutapera,BR,2022-07-28 03:50:54,-1.195,-46.02,74.86,90,93,3.47
262,Eyl,SO,2022-07-28 03:54:31,7.9803,49.8164,77.63,60,78,22.5
263,Svetlogorsk,BY,2022-07-28 03:54:31,52.6333,29.7333,56.75,89,88,6.04
264,Cidreira,BR,2022-07-28 03:54:22,-30.1811,-50.2056,61.11,88,100,4.81
265,Henties Bay,NA,2022-07-28 03:54:32,-22.116,14.2845,52.59,84,1,1.23
266,Nuuk,GL,2022-07-28 03:52:04,64.1835,-51.7216,40.05,94,82,11.81
267,Omsukchan,RU,2022-07-28 03:54:32,62.5333,155.8,61.23,34,69,7.78
268,Talnakh,RU,2022-07-28 03:52:01,69.4865,88.3972,58.21,60,91,12.95
269,Miracema Do Tocantins,BR,2022-07-28 03:54:33,-9.5618,-48.3967,72.12,45,0,2.26
270,Buala,SB,2022-07-28 03:54:33,-8.145,159.5921,85.06,67,13,9.1
271,Poum,NC,2022-07-28 03:54:34,-20.2333,164.0167,73.53,68,85,13.04
272,La Ronge,CA,2022-07-28 03:50:49,55.1001,-105.2842,66.42,55,20,0.0
273,Aswan,EG,2022-07-28 03:53:19,24.0934,32.907,85.3,16,0,5.75
274,Vestmannaeyjar,IS,2022-07-28 03:55:35,63.4427,-20.2734,51.58,74,97,16.98
275,Tabas,IR,2022-07-28 03:55:35,33.5959,56.9244,97.16,26,94,2.59
276,Pangnirtung,CA,2022-07-28 03:55:36,66.1451,-65.7125,54.09,69,100,1.25
277,Virginia Beach,US,2022-07-28 03:53:52,36.8529,-75.978,82.02,85,75,8.05
278,Chuy,UY,2022-07-28 03:55:36,-33.6971,-53.4616,60.3,97,100,6.91
279,Ipixuna,BR,2022-07-28 03:55:37,-1.7625,-48.8043,73.24,93,69,3.18
280,Camargo,MX,2022-07-28 03:55:28,27.6667,-105.1667,74.05,63,43,16.37
281,Tocopilla,CL,2022-07-28 03:55:37,-22.092,-70.1979,61.11,73,94,9.98
282,Amapa,BR,2022-07-28 03:55:38,1.0,-52.0,70.14,97,15,0.89
283,Sao Lourenco Do Sul,BR,2022-07-28 03:55:38,-31.3653,-51.9783,61.38,93,100,6.35
284,Suclayin,PH,2022-07-28 03:55:39,15.7568,121.5503,91.63,58,100,2.89
285,Kuzovatovo,RU,2022-07-28 03:55:40,53.5468,47.6866,68.14,84,2,5.99
286,Egvekinot,RU,2022-07-28 03:55:40,66.3167,-179.1667,39.65,82,100,4.52
287,Veraval,IN,2022-07-28 03:54:40,20.9,70.3667,82.78,76,98,6.55
288,Rengo,CL,2022-07-28 03:55:41,-34.4167,-70.8667,46.44,87,5,3.02
289,Saint-Augustin,CA,2022-07-28 03:55:41,51.226,-58.6502,56.32,89,58,8.99
290,Norman Wells,CA,2022-07-28 03:55:42,65.282,-126.8329,64.44,55,75,3.44
291,Margate,GB,2022-07-28 03:55:42,51.3813,1.3862,62.91,76,100,4.0
292,George,ZA,2022-07-28 03:55:43,-33.963,22.4617,44.15,93,0,4.61
293,Soyo,AO,2022-07-28 03:55:43,-6.1349,12.3689,68.81,90,98,4.25
294,The Valley,AI,2022-07-28 03:55:43,18.217,-63.0578,81.1,69,1,19.62
295,Kantang,TH,2022-07-28 03:55:44,7.4054,99.5156,86.99,99,20,2.3
296,Rognan,NO,2022-07-28 03:55:44,67.0953,15.3878,50.88,49,96,5.1
297,Youghal,IE,2022-07-28 03:55:45,51.95,-7.8506,57.09,100,38,3.65
298,Kokkola,FI,2022-07-28 03:55:45,63.8385,23.1307,58.93,84,100,6.91
299,Zherdevka,RU,2022-07-28 03:55:46,51.8486,41.4606,73.54,66,96,3.22
300,Matiguas,NI,2022-07-28 03:55:46,12.8373,-85.4622,70.66,96,96,2.89
301,Banjar,ID,2022-07-28 03:55:47,-8.19,114.9675,86.68,61,56,2.93
302,Chernyshevskiy,RU,2022-07-28 03:55:47,63.0128,112.4714,87.31,45,2,10.8
303,Flinders,AU,2022-07-28 03:55:48,-34.5833,150.8552,68.18,52,12,8.01
304,Srednekolymsk,RU,2022-07-28 03:55:48,67.45,153.6833,58.5,40,100,10.4
305,Sitka,US,2022-07-28 03:55:49,57.0531,-135.33,61.61,80,98,1.9
306,Zabol,AF,2022-07-28 03:55:49,32.25,67.25,76.17,61,77,14.63
307,Taltal,CL,2022-07-28 03:55:49,-25.4,-70.4833,59.25,79,100,3.83
308,Tungor,RU,2022-07-28 03:55:50,53.3808,142.9564,65.25,66,22,12.75
309,Las Torres De Cotillas,ES,2022-07-28 03:55:50,38.0282,-1.2419,80.28,83,0,2.21
310,Melfi,IT,2022-07-28 03:55:51,40.9965,15.6514,66.72,79,0,3.13
311,Meadow Lake,US,2022-07-28 03:55:51,34.8014,-106.5436,73.8,68,61,3.96
312,Nantucket,US,2022-07-28 03:54:54,41.2835,-70.0995,73.0,90,99,11.59
313,Fraserburgh,GB,2022-07-28 03:55:52,57.6874,-2.0184,51.12,87,94,8.99
314,Da Nang,VN,2022-07-28 03:53:03,16.0678,108.2208,93.18,49,0,2.3
315,Smithers,CA,2022-07-28 03:54:28,54.7804,-127.1743,84.52,45,0,4.61
316,Riyadh,SA,2022-07-28 03:55:53,24.6877,46.7219,93.34,27,100,14.9
317,Acarau,BR,2022-07-28 03:55:53,-2.8856,-40.12,77.83,82,81,14.52
318,Bintulu,MY,2022-07-28 03:54:47,3.1667,113.0333,86.41,70,40,3.44
319,Leeuwarden,NL,2022-07-28 03:56:54,53.2014,5.8086,53.98,93,100,1.14
320,Sao Domingos,BR,2022-07-28 03:56:54,-13.3983,-46.3183,63.19,52,0,7.23
321,Kamenka,RU,2022-07-28 03:56:54,51.3223,42.7678,71.08,65,99,5.5
322,Kalianget,ID,2022-07-28 03:56:55,-7.05,113.9333,83.57,69,34,14.54
323,Darhan,MN,2022-07-28 03:54:39,49.4867,105.9228,57.96,83,100,6.42
324,Ahipara,NZ,2022-07-28 03:56:55,-35.1667,173.1667,57.49,83,43,14.05
325,Ivanovka,KG,2022-07-28 03:56:56,42.8878,75.085,86.9,25,43,6.55
326,Roma,US,2022-07-28 03:56:56,43.2128,-75.4557,70.88,88,90,1.01
327,Atherton,GB,2022-07-28 03:56:57,53.5237,-2.4935,60.22,95,100,4.0
328,Champerico,GT,2022-07-28 03:56:57,14.3,-91.9167,78.82,82,66,4.63
329,Qaqortoq,GL,2022-07-28 03:56:57,60.7167,-46.0333,41.7,89,14,1.95
330,Aklavik,CA,2022-07-28 03:56:58,68.2191,-135.0107,52.75,63,89,11.34
331,Ciudad Del Maiz,MX,2022-07-28 03:56:58,22.4,-99.6,65.64,90,94,5.99
332,Severo-Kurilsk,RU,2022-07-28 03:56:59,50.6789,156.125,54.93,88,96,5.91
333,Anchorage,US,2022-07-28 03:56:59,61.2181,-149.9003,69.28,53,1,15.01
334,Sarangani,PH,2022-07-28 03:56:59,5.4033,125.4636,83.48,74,81,7.9
335,Valley Station,US,2022-07-28 03:57:00,38.1112,-85.8702,81.05,85,66,1.01
336,Fairbanks,US,2022-07-28 03:55:56,64.8378,-147.7164,61.61,61,75,13.8
337,Miyang,CN,2022-07-28 03:55:35,24.4042,103.4428,77.81,72,94,4.72
338,Shenjiamen,CN,2022-07-28 03:54:10,29.9576,122.298,83.08,79,3,13.38
339,Tripoli,LY,2022-07-28 03:57:01,32.8752,13.1875,82.62,48,0,8.01
340,Alice Springs,AU,2022-07-28 03:53:12,-23.7,133.8833,69.22,32,1,10.36
341,Pacific Grove,US,2022-07-28 03:57:01,36.6177,-121.9166,62.82,87,40,7.0
342,Xinzhou,CN,2022-07-28 03:57:02,38.4092,112.7333,79.11,50,0,3.44
343,Semirom,IR,2022-07-28 03:57:02,31.4167,51.5667,72.81,30,94,2.68
344,Marsh Harbour,BS,2022-07-28 03:57:03,26.5412,-77.0636,81.95,73,32,12.73
345,Malanje,AO,2022-07-28 03:57:03,-9.5402,16.341,57.11,85,100,2.77
346,Cobija,BO,2022-07-28 03:57:04,-11.0267,-68.7692,73.38,72,34,2.1
347,Bauru,BR,2022-07-28 03:57:04,-22.3147,-49.0606,65.82,59,8,3.0
348,Safford,US,2022-07-28 03:57:04,32.834,-109.7076,76.12,70,94,9.04
349,La Libertad,EC,2022-07-28 03:57:05,-2.2333,-80.9,69.46,88,100,10.36
350,Hualmay,PE,2022-07-28 03:57:05,-11.0964,-77.6139,61.41,87,43,10.18
351,Aviles,ES,2022-07-28 03:57:06,43.5547,-5.9248,62.19,85,0,2.3
352,Kambove,CD,2022-07-28 03:57:06,-10.8764,26.5969,51.78,59,45,4.59
353,Can Tho,VN,2022-07-28 03:54:47,10.0333,105.7833,87.78,70,40,2.3
354,Comodoro Rivadavia,AR,2022-07-28 03:53:38,-45.8667,-67.5,44.46,45,0,16.11
355,Vila Velha,BR,2022-07-28 03:55:46,-20.3297,-40.2925,65.95,89,20,1.14
356,Acari,PE,2022-07-28 03:57:07,-15.4311,-74.6158,60.75,86,39,1.83
357,Korla,CN,2022-07-28 03:57:08,41.7597,86.1469,95.38,11,1,6.51
358,Beringovskiy,RU,2022-07-28 03:57:08,63.05,179.3167,49.19,93,100,5.28
359,Dunbar,US,2022-07-28 03:57:09,38.3606,-81.7374,75.76,98,75,4.61
360,Mareeba,AU,2022-07-28 03:57:09,-17.0,145.4333,74.44,63,3,7.4
361,Bambanglipuro,ID,2022-07-28 03:57:09,-7.95,110.2833,82.89,71,73,11.65
362,Hofn,IS,2022-07-28 03:53:08,64.2539,-15.2082,52.68,98,100,18.99
363,Bubaque,GW,2022-07-28 03:57:10,11.2833,-15.8333,79.9,77,99,7.23
364,Tessalit,ML,2022-07-28 03:53:48,20.1986,1.0114,92.17,23,67,10.54
365,Paita,PE,2022-07-28 03:57:11,-5.0892,-81.1144,63.39,85,28,14.12
366,Rauma,FI,2022-07-28 03:57:11,61.1272,21.5113,57.24,70,100,11.92
367,Griffith,US,2022-07-28 03:57:11,41.5284,-87.4237,75.06,91,0,5.75
368,Kaka,TM,2022-07-28 03:58:12,37.3482,59.6143,91.29,23,0,1.61
369,Jiehu,CN,2022-07-28 03:58:12,35.5428,118.455,87.17,69,89,7.83
370,Alyangula,AU,2022-07-28 03:58:13,-13.8483,136.4192,77.97,59,20,12.8
371,Kloulklubed,PW,2022-07-28 03:58:13,7.0419,134.2556,84.7,71,100,7.56
372,Jalu,LY,2022-07-28 03:54:30,29.0331,21.5482,79.39,48,0,6.2
373,Codrington,AU,2022-07-28 03:58:14,-38.2667,141.9667,48.88,89,100,7.02
374,Cockburn Town,TC,2022-07-28 03:58:14,21.4612,-71.1419,81.16,77,0,20.92
375,Bilibino,RU,2022-07-28 03:58:15,68.0546,166.4372,54.27,43,100,2.64
376,Port Moresby,PG,2022-07-28 03:58:15,-9.4431,147.1797,87.22,66,40,23.02
377,Vasai,IN,2022-07-28 03:58:16,19.47,72.8,84.2,73,100,1.45
378,Solnechnyy,RU,2022-07-28 03:58:16,50.7214,136.6319,81.05,57,100,5.84
379,Sobolevo,RU,2022-07-28 03:58:16,54.4299,31.8996,59.7,96,99,7.05
380,Richards Bay,ZA,2022-07-28 03:58:17,-28.783,32.0377,62.47,89,89,4.99
381,Yatou,CN,2022-07-28 03:58:17,37.15,122.3833,81.95,78,95,12.68
382,Pundaguitan,PH,2022-07-28 03:58:18,6.3711,126.1689,84.06,71,87,9.15
383,Port Hawkesbury,CA,2022-07-28 03:58:18,45.6169,-61.3485,64.58,90,0,3.0
384,El Mante,MX,2022-07-28 03:58:19,22.7333,-98.9667,79.52,89,86,3.71
385,Palmer,US,2022-07-28 03:54:38,42.1584,-72.3287,71.15,77,40,0.0
386,Maumere,ID,2022-07-28 03:58:19,-8.6199,122.2111,82.78,58,13,3.98
387,Bhag,PK,2022-07-28 03:58:20,29.0415,67.8239,91.51,59,99,4.52
388,Shambu,ET,2022-07-28 03:58:20,9.5667,37.1,49.68,96,72,0.2
389,Wajir,KE,2022-07-28 03:58:21,1.7471,40.0573,71.56,68,0,0.0
390,Biloela,AU,2022-07-28 03:58:21,-24.4167,150.5,67.32,34,0,9.17
391,Urumqi,CN,2022-07-28 03:58:22,43.801,87.6005,88.75,16,0,6.71
392,Harper,LR,2022-07-28 03:58:22,4.375,-7.7169,75.31,73,99,10.98
393,Guiratinga,BR,2022-07-28 03:58:22,-16.3494,-53.7583,66.31,37,0,3.91
394,Winfield,US,2022-07-28 03:58:23,37.2398,-96.9956,81.19,67,63,12.17
395,Bonthe,SL,2022-07-28 03:58:23,7.5264,-12.505,74.26,91,78,6.51
396,Pangody,RU,2022-07-28 03:58:24,65.85,74.4859,63.82,55,9,12.64
397,Barranca,PE,2022-07-28 03:58:24,-10.75,-77.7667,61.32,85,82,8.05
398,Mbini,GQ,2022-07-28 03:58:25,1.574,9.6134,74.39,87,64,6.35
399,Husavik,IS,2022-07-28 03:58:25,66.0449,-17.3389,52.09,82,25,9.69
400,Klaksvik,FO,2022-07-28 03:56:30,62.2266,-6.589,52.72,91,89,14.2
401,Porto Walter,BR,2022-07-28 03:58:26,-8.2686,-72.7439,74.52,73,57,0.51
402,Nevel,RU,2022-07-28 03:58:26,56.0209,29.9284,54.72,95,94,6.31
403,Tarakan,ID,2022-07-28 03:58:27,3.3,117.6333,78.3,89,40,4.61
404,Ostrovnoy,RU,2022-07-28 03:56:47,68.0531,39.5131,62.91,78,63,16.44
405,Mikhaylovsk,RU,2022-07-28 03:58:27,45.1283,42.0256,66.42,77,0,8.99
406,Honiara,SB,2022-07-28 03:58:28,-9.4333,159.95,85.48,69,97,8.3
407,Houma,US,2022-07-28 03:58:28,29.5958,-90.7195,78.01,91,40,0.0
408,Okha,RU,2022-07-28 03:58:29,53.5739,142.9478,63.72,70,28,13.69
409,Kristiansund,NO,2022-07-28 03:58:29,63.1115,7.732,48.85,93,100,0.0
410,Cassino,IT,2022-07-28 03:58:30,41.4876,13.8315,75.52,81,0,2.53
411,Fare,PF,2022-07-28 03:58:30,-16.7,-151.0167,77.97,77,12,26.02
412,Birao,CF,2022-07-28 03:58:30,10.2849,22.7882,70.56,97,100,2.42
413,Kodinsk,RU,2022-07-28 03:58:31,58.6881,99.1844,59.54,89,100,1.59
414,Brae,GB,2022-07-28 03:58:31,60.3964,-1.353,51.24,80,61,6.64
415,Iisalmi,FI,2022-07-28 03:59:32,63.5592,27.1907,56.19,86,99,5.64
416,Verkhnyaya Inta,RU,2022-07-28 03:59:32,65.9811,60.3094,68.13,48,90,12.37
417,Ulladulla,AU,2022-07-28 03:59:33,-35.35,150.4667,59.27,60,37,7.92
418,Wainwright,CA,2022-07-28 03:59:33,52.839,-110.8572,64.06,70,16,4.27
419,Luganville,VU,2022-07-28 03:59:34,-15.5333,167.1667,81.66,75,96,5.5
420,Jumla,NP,2022-07-28 03:59:34,29.2747,82.1838,67.68,84,100,3.27
421,Bunbury,AU,2022-07-28 03:59:34,-33.3333,115.6333,62.56,65,56,14.27
422,Mafeteng,LS,2022-07-28 03:59:35,-29.823,27.2374,45.03,81,97,6.26
423,Tautira,PF,2022-07-28 03:59:35,-17.7333,-149.15,77.04,79,41,26.31
424,Vanavara,RU,2022-07-28 03:59:36,60.34,102.2797,69.89,60,82,2.93
425,Nijar,ES,2022-07-28 03:59:36,36.9665,-2.206,74.66,83,0,4.61
426,Pouembout,NC,2022-07-28 03:59:37,-21.1333,164.9,74.98,62,94,7.81
427,Havelock,US,2022-07-28 03:59:37,34.8791,-76.9013,81.99,89,61,5.01
428,Aljezur,PT,2022-07-28 03:59:37,37.3191,-8.8033,62.06,86,0,10.4
429,Mandalgovi,MN,2022-07-28 03:59:38,45.7625,106.2708,74.57,30,54,17.22
430,Sibut,CF,2022-07-28 03:59:38,5.718,19.0739,68.65,98,97,1.54
431,Vestmanna,FO,2022-07-28 03:59:39,62.1564,-7.1664,50.92,100,100,9.22
432,Beyneu,KZ,2022-07-28 03:59:32,45.3167,55.2,86.05,31,98,5.59
433,Kerchevskiy,RU,2022-07-28 03:59:39,59.946,56.2884,65.79,56,42,2.64
434,Naze,JP,2022-07-28 03:59:40,28.3667,129.4833,86.92,82,68,15.79
435,Cabo Rojo,PR,2022-07-28 03:59:40,18.0866,-67.1457,78.94,88,7,1.01
436,Shimoda,JP,2022-07-28 03:58:01,34.6667,138.95,86.36,75,78,8.21
437,Alofi,NU,2022-07-28 03:59:41,-19.0595,-169.9187,76.89,83,75,11.5
438,Raymond,US,2022-07-28 03:59:41,43.9015,-70.4703,67.41,80,98,2.93
439,Gondanglegi,ID,2022-07-28 03:59:41,-7.7479,112.0132,85.5,63,99,8.01
440,Taywarah,AF,2022-07-28 03:59:42,33.35,64.4167,72.28,26,46,1.81
441,Saint-Joseph,RE,2022-07-28 03:59:42,-21.3667,55.6167,66.58,78,19,7.07
442,Cerritos,US,2022-07-28 03:54:50,33.8583,-118.0648,81.9,80,20,6.91
443,Nanchang,CN,2022-07-28 03:59:43,28.6833,115.8833,102.45,32,47,6.46
444,Severo-Yeniseyskiy,RU,2022-07-28 03:59:43,60.3725,93.0408,64.89,59,100,3.29
445,Kawalu,ID,2022-07-28 03:59:44,-7.3817,108.2082,84.96,59,93,4.9
446,Cheremukhovo,RU,2022-07-28 03:59:44,60.3484,59.9851,66.56,54,4,3.11
447,Praia Da Vitoria,PT,2022-07-28 03:59:45,38.7333,-27.0667,72.75,94,75,8.19
448,Dax,FR,2022-07-28 03:59:45,43.75,-1.1667,63.39,94,28,0.0
449,Aban,RU,2022-07-28 03:59:45,56.67,96.06,65.82,59,100,7.7
450,Umm Kaddadah,SD,2022-07-28 03:59:46,13.6017,26.6876,77.45,67,99,6.6
451,Pringsewu,ID,2022-07-28 03:59:46,-5.3582,104.9744,84.85,65,83,5.48
452,Laela,TZ,2022-07-28 03:59:47,-8.5667,32.05,52.02,79,72,2.98
453,Kavaratti,IN,2022-07-28 03:55:42,10.5669,72.642,78.55,87,100,17.47
454,Weiser,US,2022-07-28 03:59:47,44.251,-116.9693,88.9,32,0,3.0
455,Recea,RO,2022-07-28 03:59:48,47.6333,23.5167,57.11,94,83,2.3
456,Itarema,BR,2022-07-28 03:59:48,-2.9248,-39.9167,77.79,83,83,14.34
457,Talara,PE,2022-07-28 03:59:49,-4.5772,-81.2719,64.35,86,40,18.07
458,Yulara,AU,2022-07-28 03:59:49,-25.2406,130.9889,63.88,16,12,12.95
459,Hambantota,LK,2022-07-28 03:59:49,6.1241,81.1185,77.34,100,20,4.61
460,Zanjan,IR,2022-07-28 03:59:50,36.6736,48.4787,67.69,68,20,13.8
461,Port Blair,IN,2022-07-28 03:59:50,11.6667,92.75,84.24,79,75,8.05
462,Naryan-Mar,RU,2022-07-28 03:55:38,67.6713,53.087,69.06,59,100,14.88
463,San Juan,AR,2022-07-28 03:57:33,-31.5375,-68.5364,49.78,71,99,11.18
464,Sicamous,CA,2022-07-28 03:59:51,50.8331,-118.9856,86.97,53,1,3.42
465,Shuya,RU,2022-07-28 04:00:51,56.8487,41.3883,71.44,72,11,6.53
466,Moose Factory,CA,2022-07-28 04:00:52,51.2585,-80.6094,62.58,100,100,3.44
467,Cabedelo,BR,2022-07-28 04:00:52,-6.9811,-34.8339,72.95,83,82,9.93
468,Noumea,NC,2022-07-28 04:00:53,-22.2763,166.4572,78.78,99,100,7.94
469,Sorland,NO,2022-07-28 04:00:53,67.667,12.6934,49.86,77,37,11.39
470,Hobyo,SO,2022-07-28 04:00:54,5.3505,48.5268,75.47,77,99,22.12
471,Vaxjo,SE,2022-07-28 04:00:55,56.8777,14.8091,50.58,100,0,2.3
472,La Rioja,ES,2022-07-28 04:00:55,42.25,-2.5,51.58,81,5,2.62
473,Puerto Carreno,CO,2022-07-28 04:00:56,6.189,-67.4859,75.07,91,99,7.31
474,Outjo,NA,2022-07-28 04:00:56,-20.1167,16.15,54.9,37,34,2.91
475,San-Pedro,CI,2022-07-28 04:00:57,4.7485,-6.6363,74.14,81,94,9.33
476,Luau,AO,2022-07-28 04:00:57,-10.7073,22.2247,55.02,51,74,4.61
477,Bogorodskoye,RU,2022-07-28 04:00:58,56.55,37.8833,68.04,89,59,6.24
478,Huilong,CN,2022-07-28 04:00:58,31.8111,121.655,86.85,76,0,12.21
479,Ixtapa,MX,2022-07-28 04:00:21,20.7,-105.2,79.23,87,100,1.01
480,Vaitape,PF,2022-07-28 04:00:59,-16.5167,-151.75,78.6,75,13,25.37
481,Lima Duarte,BR,2022-07-28 04:01:00,-21.8425,-43.7931,48.49,93,0,2.86
482,Sunrise Manor,US,2022-07-28 04:01:01,36.2111,-115.0731,83.88,54,75,28.77
483,Cravo Norte,CO,2022-07-28 03:59:39,6.3017,-70.2041,74.79,89,74,5.55
484,Hongjiang,CN,2022-07-28 04:01:01,27.11,109.9956,95.61,46,42,5.03
485,Joshimath,IN,2022-07-28 04:01:02,30.5667,79.5667,73.02,88,99,2.1
486,Jardim,BR,2022-07-28 03:59:26,-21.4803,-56.1381,69.19,44,14,2.73
487,Igrim,RU,2022-07-28 04:01:03,63.1906,64.4162,68.04,49,2,3.74
488,Hammerfest,NO,2022-07-28 04:01:04,70.6634,23.6821,48.65,100,100,3.44
489,Esso,RU,2022-07-28 04:01:04,55.9333,158.7,63.41,59,96,7.36
490,Hovd,MN,2022-07-28 04:00:31,48.0056,91.6419,67.73,31,4,5.39
491,Cayenne,GF,2022-07-28 04:00:58,4.9333,-52.3333,76.08,1,0,0.0
492,Berlevag,NO,2022-07-28 04:01:05,70.8578,29.0864,50.0,93,100,26.46
493,Placido De Castro,BR,2022-07-28 04:01:06,-10.3353,-67.1856,75.79,49,58,1.54
494,Daru,PG,2022-07-28 04:01:06,-9.0763,143.2092,78.12,88,43,19.55
495,Atbasar,KZ,2022-07-28 04:01:07,51.8,68.3333,73.13,58,10,15.99
496,Te Anau,NZ,2022-07-28 04:01:07,-45.4167,167.7167,41.72,98,100,1.39
497,Kamina,CD,2022-07-28 04:01:08,-8.7386,24.9906,58.06,54,52,3.62
498,Melbu,NO,2022-07-28 04:01:09,68.5044,14.8297,48.02,87,75,4.61
499,Phangnga,TH,2022-07-28 04:01:09,8.4509,98.5298,84.24,63,85,3.85
500,Santa Cruz De La Palma,ES,2022-07-28 04:01:10,28.6835,-17.7642,73.13,78,40,19.57
501,Souillac,MU,2022-07-28 04:01:10,-20.5167,57.5167,70.32,80,35,10.74
502,Crotone,IT,2022-07-28 04:01:11,39.0851,17.1178,77.2,73,0,12.26
503,Jiaonan,CN,2022-07-28 04:01:12,35.8786,119.9753,83.79,76,78,8.66
504,Kemin,KG,2022-07-28 04:01:12,42.7846,75.6892,81.5,33,50,5.99
505,Ketchikan,US,2022-07-28 04:01:12,55.3422,-131.6461,68.02,66,0,7.0
506,Burgeo,CA,2022-07-28 04:00:59,47.6167,-57.6152,60.6,89,52,7.67
507,Hailar,CN,2022-07-28 04:01:13,49.2,119.7,76.62,59,100,7.67
508,Moroni,KM,2022-07-28 04:01:14,-11.7022,43.2551,73.11,77,56,10.94
509,Wschowa,PL,2022-07-28 03:59:17,51.807,16.3166,52.92,85,0,2.77
510,Rio Grande,BR,2022-07-28 03:57:24,-32.035,-52.0986,58.95,96,98,7.38
511,Pervomayskoye,RU,2022-07-28 04:02:15,43.919,46.7102,73.81,67,16,6.02
512,Cascais,PT,2022-07-28 04:02:15,38.6979,-9.4215,68.47,75,0,35.01
513,Orlik,RU,2022-07-28 04:02:16,52.5178,99.825,59.59,63,84,2.04
514,Havre-Saint-Pierre,CA,2022-07-28 04:02:16,50.2334,-63.5986,60.13,77,69,8.1
515,Cantanhede,BR,2022-07-28 04:02:17,-3.6333,-44.3767,71.37,94,31,3.38
516,Sala Consilina,IT,2022-07-28 04:02:17,40.3912,15.5989,66.56,85,2,3.15
517,Sabzevar,IR,2022-07-28 04:02:18,36.2126,57.6819,86.32,28,2,12.68
518,Port-Cartier,CA,2022-07-28 04:02:18,50.0334,-66.8654,63.75,87,70,5.41
519,Curup,ID,2022-07-28 03:59:40,-3.4667,102.5333,81.48,68,91,2.75
520,Inhambane,MZ,2022-07-28 03:58:23,-23.865,35.3833,57.18,94,40,0.0
521,Tagbac,PH,2022-07-28 04:02:19,7.089,125.1567,80.94,82,100,2.19
522,Arifwala,PK,2022-07-28 04:02:20,30.294,73.0735,94.32,55,13,6.6
523,Kouango,CF,2022-07-28 04:02:20,4.9934,19.9619,70.02,96,100,0.92
524,Isetskoye,RU,2022-07-28 04:02:21,56.4858,65.3226,58.5,81,100,8.9
525,Andros Town,BS,2022-07-28 04:02:21,24.7,-77.7667,82.0,78,1,15.93
526,Kangaatsiaq,GL,2022-07-28 04:02:22,68.3065,-53.4641,39.78,94,93,9.06
527,Mayskiy,RU,2022-07-28 04:02:23,47.6931,40.1025,65.61,53,1,4.61
528,Chara,RU,2022-07-28 04:02:23,56.9064,118.2631,74.88,48,100,2.64
529,Tiznit,MA,2022-07-28 04:02:24,29.5833,-9.5,73.31,57,0,2.08
530,Yaan,NG,2022-07-28 04:02:24,7.3833,8.5667,70.7,97,100,4.99
531,Rosetta,EG,2022-07-28 04:02:25,31.4044,30.4164,77.27,72,0,2.66
532,Kurumkan,RU,2022-07-28 04:02:25,54.3,110.3,55.9,98,100,5.48
533,Zhob,PK,2022-07-28 04:02:26,31.3411,69.4481,79.74,64,98,3.96
534,Excelsior Springs,US,2022-07-28 04:02:26,39.3392,-94.2261,77.77,97,0,0.0
535,Juneau,US,2022-07-28 03:58:04,58.3019,-134.4197,59.99,100,97,2.89
536,Vila Franca Do Campo,PT,2022-07-28 04:01:51,37.7167,-25.4333,72.01,93,83,3.65
537,Camacupa,AO,2022-07-28 04:02:27,-12.0167,17.4833,50.88,39,100,3.36
538,Carbonia,IT,2022-07-28 04:02:27,39.1672,8.5222,74.05,74,0,6.53
539,Kaeo,NZ,2022-07-28 04:02:28,-35.1,173.7833,61.32,81,48,12.86
540,Kaitangata,NZ,2022-07-28 04:02:28,-46.2817,169.8464,44.8,93,100,7.58
541,Esperance,AU,2022-07-28 04:02:29,-33.8667,121.9,65.82,45,2,16.2
542,Partur,IN,2022-07-28 04:02:29,19.6,76.2167,81.1,71,100,5.57
543,Colonia,DE,2022-07-28 04:02:04,50.9333,6.95,57.96,75,0,2.3
544,Guaruja,BR,2022-07-28 04:01:52,-23.9931,-46.2564,66.87,81,7,3.33
545,Manta,EC,2022-07-28 04:02:30,-0.95,-80.7333,70.34,88,93,9.64
546,Baruun-Urt,MN,2022-07-28 04:02:31,46.6806,113.2792,73.13,36,12,1.88
547,Ballymena,GB,2022-07-28 04:02:31,54.8636,-6.2763,53.04,83,100,2.21
548,Wanaka,NZ,2022-07-28 04:02:32,-44.7,169.15,42.66,91,96,3.76
549,Turan,VN,2022-07-28 04:00:18,16.0678,108.2208,93.18,49,0,2.3
550,Kozhva,RU,2022-07-28 04:02:32,65.1073,57.0459,68.74,44,55,7.18
551,Hinton,CA,2022-07-28 04:01:55,53.4001,-117.5857,67.87,70,39,3.58
552,Tyukhtet,RU,2022-07-28 04:02:33,56.5389,89.3011,69.69,54,99,5.5
553,Balgarovo,BG,2022-07-28 04:02:33,42.6214,27.3046,71.29,94,20,6.91
554,Hasaki,JP,2022-07-28 04:02:34,35.7333,140.8333,97.29,78,77,15.95
555,Kimbe,PG,2022-07-28 04:02:34,-5.5502,150.1429,89.83,55,27,5.97
556,Little Current,CA,2022-07-28 04:00:00,45.9793,-81.9248,62.65,95,8,7.74
557,Horki,BY,2022-07-28 04:03:35,54.2861,30.9842,56.57,95,100,8.5
558,Onega,RU,2022-07-28 04:03:35,63.9061,38.1404,64.0,78,96,6.08
559,Tateyama,JP,2022-07-28 04:03:36,34.9833,139.8667,82.15,81,50,12.17
560,Andenes,NO,2022-07-28 04:03:36,69.3143,16.1194,48.18,93,75,13.8
561,Panaba,MX,2022-07-28 04:03:37,21.2833,-88.2667,76.96,85,61,7.9
562,Tucurui,BR,2022-07-28 04:03:37,-3.7661,-49.6725,75.13,59,55,1.5
563,Fez,MA,2022-07-28 04:03:38,34.0372,-4.9998,64.65,63,0,2.3
564,Quatre Cocos,MU,2022-07-28 04:03:38,-20.2078,57.7625,70.09,77,24,11.07
565,Tabou,CI,2022-07-28 04:03:39,4.423,-7.3528,74.93,75,98,10.58
566,Vostok,RU,2022-07-28 04:03:39,46.4856,135.8833,83.66,48,41,5.03
567,Saint-Ambroise,CA,2022-07-28 04:03:40,48.5501,-71.3324,63.57,81,100,3.65
568,Russell,US,2022-07-28 04:01:00,32.3502,-85.1999,80.91,68,88,5.12
569,Ashtian,IR,2022-07-28 04:03:40,34.5217,50.0019,77.76,37,28,5.73
570,Touros,BR,2022-07-28 03:59:10,-5.1989,-35.4608,72.72,86,36,12.12
571,Ouesso,CG,2022-07-28 04:03:41,1.6136,16.0517,70.7,93,79,1.36
572,Haputale,LK,2022-07-28 04:03:42,6.7681,80.9595,70.0,69,74,3.18
573,Matara,LK,2022-07-28 04:03:42,5.9485,80.5353,81.7,75,94,8.41
574,Nemuro,JP,2022-07-28 04:03:42,43.3236,145.575,64.96,91,43,4.9
575,Morondava,MG,2022-07-28 04:00:57,-20.2833,44.2833,63.68,78,0,4.97
576,Thinadhoo,MV,2022-07-28 04:03:43,0.5333,72.9333,83.23,73,95,13.8
577,Porto Novo,BJ,2022-07-28 04:03:44,6.4965,2.6036,75.65,85,100,11.41
578,Mayor Pablo Lagerenza,PY,2022-07-28 04:03:44,-19.9309,-60.7718,70.39,40,1,5.91
579,Pangai,TO,2022-07-28 04:03:44,-19.8,-174.35,76.95,75,28,15.12
580,Mutare,ZW,2022-07-28 04:03:45,-18.9707,32.6709,46.4,91,0,2.59
581,Sukabumi,ID,2022-07-28 04:00:20,-6.9181,106.9267,81.34,58,98,4.85
582,Ordu,TR,2022-07-28 04:03:46,40.9086,37.6845,59.5,74,0,3.04
583,Kupino,RU,2022-07-28 04:03:46,54.3663,77.2981,77.4,51,92,10.38
584,Shelburne,CA,2022-07-28 04:03:47,44.0787,-80.2041,66.6,89,21,7.7
585,Taunggyi,MM,2022-07-28 04:03:47,20.7833,97.0333,79.18,61,3,1.99
